[{"id": "NEiSS5cDAeRgHc7TS0pxCg", "alias": "steam-boys-cleveland", "name": "Steam Boys", "image_url": "https://s3-media3.fl.yelpcdn.com/bphoto/8Jm2hRDWI2wfRw2p4prO3g/o.jpg", "is_closed": false, "url": "https://www.yelp.com/biz/steam-boys-cleveland?adjust_creative=dDrgJ5jr3huSDkINiLtKBw&utm_campaign=yelp_api_v3&utm_medium=api_v3_business_search&utm_source=dDrgJ5jr3huSDkINiLtKBw", "review_count": 35, "categories": [{"alias": "dimsum", "title": "Dim Sum"}, {"alias": "bubbletea", "title": "Bubble Tea"}], "rating": 4.0, "coordinates": {"latitude": 35.2100599, "longitude": -84.8566357}, "transactions": ["delivery", "pickup"], "price": "$$", "location": {"address1": "674 Sgt Paul Huff Pkwy NW", "address2": "Ste 402", "address3": null, "city": "Cleveland", "zip_code": "37312", "country": "US", "state": "TN", "display_address": ["674 Sgt Paul Huff Pkwy NW", "Ste 402", "Cleveland, TN 37312"]}, "phone": "+14237900650", "display_phone": "(423) 790-0650", "distance": 38425.80338282511}, {"id": "zXrbBeIy83GaG9envfIVUg", "alias": "han-mi-chattanooga-2", "name": "Han-Mi", "image_url": "https://s3-media2.fl.yelpcdn.com/bphoto/QCgKvz7YHRU04sjTE0vJ4A/o.jpg", "is_closed": false, "url": "https://www.yelp.com/biz/han-mi-chattanooga-2?adjust_creative=dDrgJ5jr3huSDkINiLtKBw&utm_campaign=yelp_api_v3&utm_medium=api_v3_business_search&utm_source=dDrgJ5jr3huSDkINiLtKBw", "review_count": 129, "categories": [{"alias": "korean", "title": "Korean"}, {"alias": "asianfusion", "title": "Asian Fusion"}], "rating": 4.5, "coordinates": {"latitude": 35.020864, "longitude": -85.320737}, "transactions": [], "price": "$$", "location": {"address1": "3103 Broad St", "address2": null, "address3": null, "city": "Chattanooga", "zip_code": "37408", "country": "US", "state": "TN", "display_address": ["3103 Broad St", "Chattanooga, TN 37408"]}, "phone": "+14235417273", "display_phone": "(423) 541-7273", "distance": 10116.89616386589}, {"id": "LpqPw6eU66voDREOx61OXg", "alias": "volcano-korean-bbq-chattanooga", "name": "Volcano Korean BBQ", "image_url": "https://s3-media3.fl.yelpcdn.com/bphoto/Rl8QsWxx35AzKubHOrkISA/o.jpg", "is_closed": false, "url": "https://www.yelp.com/biz/volcano-korean-bbq-chattanooga?adjust_creative=dDrgJ5jr3huSDkINiLtKBw&utm_campaign=yelp_api_v3&utm_medium=api_v3_business_search&utm_source=dDrgJ5jr3huSDkINiLtKBw", "review_count": 49, "categories": [{"alias": "bbq", "title": "Barbeque"}, {"alias": "korean", "title": "Korean"}], "rating": 4.0, "coordinates": {"latitude": 35.0312, "longitude": -85.15562}, "transactions": ["delivery", "pickup"], "location": {"address1": "2011 Gunbarrel Rd", "address2": null, "address3": "", "city": "Chattanooga", "zip_code": "37421", "country": "US", "state": "TN", "display_address": ["2011 Gunbarrel Rd", "Chattanooga, TN 37421"]}, "phone": "+14232129968", "display_phone": "(423) 212-9968", "distance": 11934.090408666278}, {"id": "Pn4YyKqmWqYn4sLYre3gIA", "alias": "super-pho-and-grill-chattanooga", "name": "Super Pho & Grill", "image_url": "https://s3-media3.fl.yelpcdn.com/bphoto/hSahwJn0zoLz3e9GB3ULnA/o.jpg", "is_closed": false, "url": "https://www.yelp.com/biz/super-pho-and-grill-chattanooga?adjust_creative=dDrgJ5jr3huSDkINiLtKBw&utm_campaign=yelp_api_v3&utm_medium=api_v3_business_search&utm_source=dDrgJ5jr3huSDkINiLtKBw", "review_count": 47, "categories": [{"alias": "vietnamese", "title": "Vietnamese"}], "rating": 4.5, "coordinates": {"latitude": 35.045631, "longitude": -85.161837}, "transactions": ["delivery"], "location": {"address1": "7003 Lee Hwy", "address2": "Ste 1731", "address3": null, "city": "Chattanooga", "zip_code": "37421", "country": "US", "state": "TN", "display_address": ["7003 Lee Hwy", "Ste 1731", "Chattanooga, TN 37421"]}, "phone": "+14238993236", "display_phone": "(423) 899-3236", "distance": 10542.414263431663}, {"id": "xJkuexCB2mHcoeEysXeqFw", "alias": "thai-esan-chattanooga", "name": "Thai Esan", "image_url": "https://s3-media1.fl.yelpcdn.com/bphoto/BLm7e4Iw11Yx63NqFKC6SA/o.jpg", "is_closed": false, "url": "https://www.yelp.com/biz/thai-esan-chattanooga?adjust_creative=dDrgJ5jr3huSDkINiLtKBw&utm_campaign=yelp_api_v3&utm_medium=api_v3_business_search&utm_source=dDrgJ5jr3huSDkINiLtKBw", "review_count": 262, "categories": [{"alias": "thai", "title": "Thai"}, {"alias": "laotian", "title": "Laotian"}], "rating": 4.5, "coordinates": {"latitude": 34.99573, "longitude": -85.23878}, "transactions": ["delivery", "pickup"], "price": "$$", "location": {"address1": "4330 Ringgold Rd", "address2": "", "address3": "", "city": "Chattanooga", "zip_code": "37412", "country": "US", "state": "TN", "display_address": ["4330 Ringgold Rd", "Chattanooga, TN 37412"]}, "phone": "+14236688924", "display_phone": "(423) 668-8924", "distance": 11394.125403213347}, {"id": "e_uOEiLn01_GEi3Q9I73YQ", "alias": "vietnamese-bistro-dayton", "name": "Vietnamese Bistro", "image_url": "https://s3-media4.fl.yelpcdn.com/bphoto/RjWpC1vJ3Pqpq_-mwgfGOw/o.jpg", "is_closed": false, "url": "https://www.yelp.com/biz/vietnamese-bistro-dayton?adjust_creative=dDrgJ5jr3huSDkINiLtKBw&utm_campaign=yelp_api_v3&utm_medium=api_v3_business_search&utm_source=dDrgJ5jr3huSDkINiLtKBw", "review_count": 41, "categories": [{"alias": "vietnamese", "title": "Vietnamese"}, {"alias": "asianfusion", "title": "Asian Fusion"}], "rating": 4.5, "coordinates": {"latitude": 35.47575, "longitude": -85.02739}, "transactions": [], "price": "$", "location": {"address1": "200 Able Dr", "address2": "Ste 11", "address3": null, "city": "Dayton", "zip_code": "37321", "country": "US", "state": "TN", "display_address": ["200 Able Dr", "Ste 11", "Dayton, TN 37321"]}, "phone": "+14235700100", "display_phone": "(423) 570-0100", "distance": 47122.95960598666}, {"id": "0nzBdZZeGjZxffzD7TkJig", "alias": "taichi-bubble-tea-chattanooga-2", "name": "TaiChi Bubble Tea", "image_url": "https://s3-media4.fl.yelpcdn.com/bphoto/os1LKG9c7t7Nwmg2KWli4w/o.jpg", "is_closed": false, "url": "https://www.yelp.com/biz/taichi-bubble-tea-chattanooga-2?adjust_creative=dDrgJ5jr3huSDkINiLtKBw&utm_campaign=yelp_api_v3&utm_medium=api_v3_business_search&utm_source=dDrgJ5jr3huSDkINiLtKBw", "review_count": 171, "categories": [{"alias": "ramen", "title": "Ramen"}, {"alias": "bubbletea", "title": "Bubble Tea"}, {"alias": "poke", "title": "Poke"}], "rating": 4.0, "coordinates": {"latitude": 35.0259401, "longitude": -85.1559672}, "transactions": ["delivery", "pickup"], "price": "$$", "location": {"address1": "1820 Gunbarrel Rd", "address2": "Ste 500", "address3": "", "city": "Chattanooga", "zip_code": "37421", "country": "US", "state": "TN", "display_address": ["1820 Gunbarrel Rd", "Ste 500", "Chattanooga, TN 37421"]}, "phone": "+14235413000", "display_phone": "(423) 541-3000", "distance": 12272.249176417938}, {"id": "bnAxj8NRar9NZSfG6nxD-g", "alias": "golden-big-bowl-chattanooga", "name": "Golden Big Bowl", "image_url": "https://s3-media1.fl.yelpcdn.com/bphoto/n27PfeklGFI6dKzGGuzKsQ/o.jpg", "is_closed": false, "url": "https://www.yelp.com/biz/golden-big-bowl-chattanooga?adjust_creative=dDrgJ5jr3huSDkINiLtKBw&utm_campaign=yelp_api_v3&utm_medium=api_v3_business_search&utm_source=dDrgJ5jr3huSDkINiLtKBw", "review_count": 88, "categories": [{"alias": "asianfusion", "title": "Asian Fusion"}], "rating": 4.5, "coordinates": {"latitude": 35.0103968783496, "longitude": -85.2194368518518}, "transactions": [], "location": {"address1": "5517 Brainerd Rd", "address2": "", "address3": null, "city": "Chattanooga", "zip_code": "37411", "country": "US", "state": "TN", "display_address": ["5517 Brainerd Rd", "Chattanooga, TN 37411"]}, "phone": "+14234981243", "display_phone": "(423) 498-1243", "distance": 10267.236972110139}, {"id": "fPLHXSBoMYkv9EKxh0ex7Q", "alias": "asian-food-and-gifts-of-chattanooga-chattanooga", "name": "Asian Food & Gifts of Chattanooga", "image_url": "https://s3-media2.fl.yelpcdn.com/bphoto/ALE8S1lK9cx772NKQc85-w/o.jpg", "is_closed": false, "url": "https://www.yelp.com/biz/asian-food-and-gifts-of-chattanooga-chattanooga?adjust_creative=dDrgJ5jr3huSDkINiLtKBw&utm_campaign=yelp_api_v3&utm_medium=api_v3_business_search&utm_source=dDrgJ5jr3huSDkINiLtKBw", "review_count": 34, "categories": [{"alias": "importedfood", "title": "Imported Food"}], "rating": 4.5, "coordinates": {"latitude": 35.1078071594238, "longitude": -85.2723388671875}, "transactions": [], "price": "$", "location": {"address1": "3639 Hixson Pike", "address2": "", "address3": "", "city": "Chattanooga", "zip_code": "37415", "country": "US", "state": "TN", "display_address": ["3639 Hixson Pike", "Chattanooga, TN 37415"]}, "phone": "+14238701067", "display_phone": "(423) 870-1067", "distance": 1702.971370967428}, {"id": "6X2NAW2x8iiiyeRGogSRuA", "alias": "sweet-basil-thai-cuisine-chattanooga", "name": "Sweet Basil Thai Cuisine", "image_url": "https://s3-media4.fl.yelpcdn.com/bphoto/R7-sIOxtrb_MhMH6sdP8mg/o.jpg", "is_closed": false, "url": "https://www.yelp.com/biz/sweet-basil-thai-cuisine-chattanooga?adjust_creative=dDrgJ5jr3huSDkINiLtKBw&utm_campaign=yelp_api_v3&utm_medium=api_v3_business_search&utm_source=dDrgJ5jr3huSDkINiLtKBw", "review_count": 154, "categories": [{"alias": "thai", "title": "Thai"}, {"alias": "sushi", "title": "Sushi Bars"}, {"alias": "noodles", "title": "Noodles"}], "rating": 4.0, "coordinates": {"latitude": 35.014488, "longitude": -85.211447}, "transactions": ["delivery", "pickup"], "price": "$$", "location": {"address1": "5855 Brainerd Rd", "address2": "Ste 125", "address3": "", "city": "Chattanooga", "zip_code": "37411", "country": "US", "state": "TN", "display_address": ["5855 Brainerd Rd", "Ste 125", "Chattanooga, TN 37411"]}, "phone": "+14234858836", "display_phone": "(423) 485-8836", "distance": 10136.717740857655}, {"id": "maaD6nR4OfZv-FzDIYNRHQ", "alias": "zaya-1943-korean-steakhouse-chattanooga", "name": "Zaya 1943 Korean Steakhouse", "image_url": "https://s3-media4.fl.yelpcdn.com/bphoto/oYmpWQyi1cxRwL5LedwDoQ/o.jpg", "is_closed": false, "url": "https://www.yelp.com/biz/zaya-1943-korean-steakhouse-chattanooga?adjust_creative=dDrgJ5jr3huSDkINiLtKBw&utm_campaign=yelp_api_v3&utm_medium=api_v3_business_search&utm_source=dDrgJ5jr3huSDkINiLtKBw", "review_count": 81, "categories": [{"alias": "steak", "title": "Steakhouses"}, {"alias": "korean", "title": "Korean"}, {"alias": "cocktailbars", "title": "Cocktail Bars"}], "rating": 4.0, "coordinates": {"latitude": 35.063874, "longitude": -85.312217}, "transactions": [], "location": {"address1": "300 Cherokee Blvd", "address2": "Ste 125", "address3": null, "city": "Chattanooga", "zip_code": "37405", "country": "US", "state": "TN", "display_address": ["300 Cherokee Blvd", "Ste 125", "Chattanooga, TN 37405"]}, "phone": "+14236439292", "display_phone": "(423) 643-9292", "distance": 6034.393897002538}, {"id": "7ASs728REzKdrqFNzWqKEw", "alias": "formosa-restaurant-chattanooga", "name": "Formosa Restaurant", "image_url": "https://s3-media4.fl.yelpcdn.com/bphoto/-KcfRaCllNERfdghqnzH7A/o.jpg", "is_closed": false, "url": "https://www.yelp.com/biz/formosa-restaurant-chattanooga?adjust_creative=dDrgJ5jr3huSDkINiLtKBw&utm_campaign=yelp_api_v3&utm_medium=api_v3_business_search&utm_source=dDrgJ5jr3huSDkINiLtKBw", "review_count": 177, "categories": [{"alias": "shanghainese", "title": "Shanghainese"}, {"alias": "cantonese", "title": "Cantonese"}, {"alias": "szechuan", "title": "Szechuan"}], "rating": 3.5, "coordinates": {"latitude": 35.137956499563, "longitude": -85.249240066405}, "transactions": [], "price": "$$", "location": {"address1": "5425 Hwy 153", "address2": "", "address3": "", "city": "Chattanooga", "zip_code": "37343", "country": "US", "state": "TN", "display_address": ["5425 Hwy 153", "Chattanooga, TN 37343"]}, "phone": "+14238756953", "display_phone": "(423) 875-6953", "distance": 4674.955940423123}, {"id": "qf6ZdGmguH9MwcVaAzY2yA", "alias": "two-ten-jack-chattanooga", "name": "Two Ten Jack", "image_url": "https://s3-media4.fl.yelpcdn.com/bphoto/APLT6b8pa4EyC-rauzVrYA/o.jpg", "is_closed": false, "url": "https://www.yelp.com/biz/two-ten-jack-chattanooga?adjust_creative=dDrgJ5jr3huSDkINiLtKBw&utm_campaign=yelp_api_v3&utm_medium=api_v3_business_search&utm_source=dDrgJ5jr3huSDkINiLtKBw", "review_count": 476, "categories": [{"alias": "ramen", "title": "Ramen"}, {"alias": "izakaya", "title": "Izakaya"}, {"alias": "cocktailbars", "title": "Cocktail Bars"}], "rating": 4.0, "coordinates": {"latitude": 35.0427550928845, "longitude": -85.3087406363998}, "transactions": ["delivery", "pickup"], "price": "$$", "location": {"address1": "1110 Market St", "address2": "Ste FC4", "address3": "", "city": "Chattanooga", "zip_code": "37402", "country": "US", "state": "TN", "display_address": ["1110 Market St", "Ste FC4", "Chattanooga, TN 37402"]}, "phone": "+14235518799", "display_phone": "(423) 551-8799", "distance": 7496.807521378264}, {"id": "dGFmnL-rfigKKssT2As-bQ", "alias": "chaos-mongolian-grill-chattanooga", "name": "Chao's Mongolian Grill", "image_url": "https://s3-media3.fl.yelpcdn.com/bphoto/98jWoircDTeF4G_Xo-Ii7A/o.jpg", "is_closed": false, "url": "https://www.yelp.com/biz/chaos-mongolian-grill-chattanooga?adjust_creative=dDrgJ5jr3huSDkINiLtKBw&utm_campaign=yelp_api_v3&utm_medium=api_v3_business_search&utm_source=dDrgJ5jr3huSDkINiLtKBw", "review_count": 93, "categories": [{"alias": "mongolian", "title": "Mongolian"}, {"alias": "bbq", "title": "Barbeque"}, {"alias": "gluten_free", "title": "Gluten-Free"}], "rating": 4.5, "coordinates": {"latitude": 35.01148381212187, "longitude": -85.21308444330985}, "transactions": ["delivery"], "price": "$$", "location": {"address1": "5726 Brainerd Rd", "address2": "", "address3": "", "city": "Chattanooga", "zip_code": "37411", "country": "US", "state": "TN", "display_address": ["5726 Brainerd Rd", "Chattanooga, TN 37411"]}, "phone": "+14235531128", "display_phone": "(423) 553-1128", "distance": 10375.491581015398}, {"id": "hpThmiu7yfcQEi-IhhcNsg", "alias": "rice-box-chattanooga", "name": "Rice Box", "image_url": "https://s3-media1.fl.yelpcdn.com/bphoto/uQo0oYZVq8sHPfFzMh-Tiw/o.jpg", "is_closed": false, "url": "https://www.yelp.com/biz/rice-box-chattanooga?adjust_creative=dDrgJ5jr3huSDkINiLtKBw&utm_campaign=yelp_api_v3&utm_medium=api_v3_business_search&utm_source=dDrgJ5jr3huSDkINiLtKBw", "review_count": 107, "categories": [{"alias": "chinese", "title": "Chinese"}, {"alias": "sushi", "title": "Sushi Bars"}, {"alias": "japanese", "title": "Japanese"}], "rating": 3.5, "coordinates": {"latitude": 35.1064, "longitude": -85.27148}, "transactions": ["delivery"], "price": "$$", "location": {"address1": "3600 Hixson Pike", "address2": "Ste 104", "address3": "", "city": "Chattanooga", "zip_code": "37415", "country": "US", "state": "TN", "display_address": ["3600 Hixson Pike", "Ste 104", "Chattanooga, TN 37415"]}, "phone": "+14233050206", "display_phone": "(423) 305-0206", "distance": 1498.6586569818642}, {"id": "xegRlihfq9GTMwiM-Ct95w", "alias": "rain-thai-bistro-chattanooga", "name": "Rain Thai Bistro", "image_url": "https://s3-media2.fl.yelpcdn.com/bphoto/F2E58AAY_4NxQCUuik4HSg/o.jpg", "is_closed": false, "url": "https://www.yelp.com/biz/rain-thai-bistro-chattanooga?adjust_creative=dDrgJ5jr3huSDkINiLtKBw&utm_campaign=yelp_api_v3&utm_medium=api_v3_business_search&utm_source=dDrgJ5jr3huSDkINiLtKBw", "review_count": 356, "categories": [{"alias": "thai", "title": "Thai"}, {"alias": "sushi", "title": "Sushi Bars"}], "rating": 3.5, "coordinates": {"latitude": 35.044631472223365, "longitude": -85.16619664333568}, "transactions": ["delivery", "pickup"], "price": "$$", "location": {"address1": "6933 Lee Hwy", "address2": "Ste 400", "address3": null, "city": "Chattanooga", "zip_code": "37421", "country": "US", "state": "TN", "display_address": ["6933 Lee Hwy", "Ste 400", "Chattanooga, TN 37421"]}, "phone": "+14233865586", "display_phone": "(423) 386-5586", "distance": 10272.400810782849}, {"id": "HcM5xrWhdsYmkkaighVEIg", "alias": "tao-asian-cuisine-ringgold", "name": "Tao Asian Cuisine", "image_url": "https://s3-media2.fl.yelpcdn.com/bphoto/EzAaJRrFPgnBuHXKmP75Ng/o.jpg", "is_closed": false, "url": "https://www.yelp.com/biz/tao-asian-cuisine-ringgold?adjust_creative=dDrgJ5jr3huSDkINiLtKBw&utm_campaign=yelp_api_v3&utm_medium=api_v3_business_search&utm_source=dDrgJ5jr3huSDkINiLtKBw", "review_count": 23, "categories": [{"alias": "sushi", "title": "Sushi Bars"}, {"alias": "teppanyaki", "title": "Teppanyaki"}, {"alias": "chinese", "title": "Chinese"}], "rating": 4.5, "coordinates": {"latitude": 34.91195833, "longitude": -85.13055667}, "transactions": [], "price": "$$", "location": {"address1": "114 Remco Shops Ln", "address2": "", "address3": null, "city": "Ringgold", "zip_code": "30736", "country": "US", "state": "GA", "display_address": ["114 Remco Shops Ln", "Ringgold, GA 30736"]}, "phone": "+17069521818", "display_phone": "(706) 952-1818", "distance": 23662.098313940034}, {"id": "le6msBiVy_C_FlWL_hWycA", "alias": "chopstix-chattanooga-3", "name": "Chopstix", "image_url": "https://s3-media1.fl.yelpcdn.com/bphoto/we3au2z9wSbJNUTV-gXQaw/o.jpg", "is_closed": false, "url": "https://www.yelp.com/biz/chopstix-chattanooga-3?adjust_creative=dDrgJ5jr3huSDkINiLtKBw&utm_campaign=yelp_api_v3&utm_medium=api_v3_business_search&utm_source=dDrgJ5jr3huSDkINiLtKBw", "review_count": 214, "categories": [{"alias": "vietnamese", "title": "Vietnamese"}, {"alias": "bubbletea", "title": "Bubble Tea"}, {"alias": "korean", "title": "Korean"}], "rating": 4.0, "coordinates": {"latitude": 35.0432567762187, "longitude": -85.1657224074074}, "transactions": ["delivery"], "price": "$$", "location": {"address1": "6903 Lee Hwy", "address2": "", "address3": null, "city": "Chattanooga", "zip_code": "37421", "country": "US", "state": "TN", "display_address": ["6903 Lee Hwy", "Chattanooga, TN 37421"]}, "phone": "+14233050537", "display_phone": "(423) 305-0537", "distance": 10394.821496736908}, {"id": "7_aDCNR6edRhS7gvmlk2jQ", "alias": "totto-sushi-and-grill-chattanooga", "name": "Totto Sushi & Grill", "image_url": "https://s3-media2.fl.yelpcdn.com/bphoto/7CG45Muly9Fe3b_Z0WY_TQ/o.jpg", "is_closed": false, "url": "https://www.yelp.com/biz/totto-sushi-and-grill-chattanooga?adjust_creative=dDrgJ5jr3huSDkINiLtKBw&utm_campaign=yelp_api_v3&utm_medium=api_v3_business_search&utm_source=dDrgJ5jr3huSDkINiLtKBw", "review_count": 233, "categories": [{"alias": "sushi", "title": "Sushi Bars"}, {"alias": "steak", "title": "Steakhouses"}, {"alias": "seafood", "title": "Seafood"}], "rating": 4.0, "coordinates": {"latitude": 35.06183, "longitude": -85.30565}, "transactions": ["delivery"], "price": "$$", "location": {"address1": "330 Frazier Ave", "address2": "Ste 124", "address3": "", "city": "Chattanooga", "zip_code": "37405", "country": "US", "state": "TN", "display_address": ["330 Frazier Ave", "Ste 124", "Chattanooga, TN 37405"]}, "phone": "+14235088898", "display_phone": "(423) 508-8898", "distance": 5722.661662757288}, {"id": "l0r5ohrWFRpBpvZcBgwN5A", "alias": "taichi-bubble-tea-downtown-chattanooga", "name": "Taichi Bubble Tea Downtown", "image_url": "https://s3-media4.fl.yelpcdn.com/bphoto/jyh3ProvAghE6ySWkGUwTQ/o.jpg", "is_closed": false, "url": "https://www.yelp.com/biz/taichi-bubble-tea-downtown-chattanooga?adjust_creative=dDrgJ5jr3huSDkINiLtKBw&utm_campaign=yelp_api_v3&utm_medium=api_v3_business_search&utm_source=dDrgJ5jr3huSDkINiLtKBw", "review_count": 141, "categories": [{"alias": "bubbletea", "title": "Bubble Tea"}, {"alias": "ramen", "title": "Ramen"}, {"alias": "poke", "title": "Poke"}], "rating": 4.0, "coordinates": {"latitude": 35.05147, "longitude": -85.31089}, "transactions": ["delivery", "pickup"], "price": "$$", "location": {"address1": "411 Broad St", "address2": "Ste 111", "address3": "", "city": "Chattanooga", "zip_code": "37402", "country": "US", "state": "TN", "display_address": ["411 Broad St", "Ste 111", "Chattanooga, TN 37402"]}, "phone": "+14235415100", "display_phone": "(423) 541-5100", "distance": 6873.432707888447}]